{
  "file": "./models/stations.json",
  "stations": [
    {
      "title": "Tramore",
      "_id": "02d31fad-e314-4f4e-8ad6-397a33f14c1a",
      "latitude": 52.16235,
      "longitude": -7.15244,
      "userid": "bca0795f-ddb8-4d6c-b287-5e232ed9e397"
    },
    {
      "title": "Dunmore East",
      "_id": "348f873a-d1ed-434d-8eaf-f42086bc235e",
      "latitude": 52.1499994,
      "longitude": -6.9833294,
      "userid": "bca0795f-ddb8-4d6c-b287-5e232ed9e397"
    },
    {
      "title": "Hook Head",
      "_id": "5efa143e-587a-4225-8aa0-06c5d81f81b3",
      "latitude": 52.123719,
      "longitude": -6.92946,
      "userid": "bca0795f-ddb8-4d6c-b287-5e232ed9e397"
    },
    {
      "title": "Cliffs of Moher",
      "_id": "2f2189f8-4626-4982-b7a3-d6c958c49de6",
      "latitude": 52.9715,
      "longitude": -9.4309,
      "userid": "bca0795f-ddb8-4d6c-b287-5e232ed9e397"
    },
    {
      "title": "Blarney Castle",
      "_id": "dea8e45b-9ade-46b9-9c2d-ffab4fd20f02",
      "latitude": 51.9292,
      "longitude": -8.5703,
      "userid": "bca0795f-ddb8-4d6c-b287-5e232ed9e397"
    },
    {
      "title": "Killarney National Park",
      "_id": "2171f1ae-1819-4e91-9294-27a402fb8604",
      "latitude": 52.0309,
      "longitude": -9.4909,
      "userid": "bca0795f-ddb8-4d6c-b287-5e232ed9e397"
    },
    {
      "title": "Rock of Cashel",
      "_id": "d28110c3-fdf5-4a66-bc0f-7ca83c5c2f9e",
      "latitude": 52.52,
      "longitude": -7.89,
      "userid": "bca0795f-ddb8-4d6c-b287-5e232ed9e397"
    }
  ]
}